{
    "features":[
        {
            "geometry":{
                "coordinates":[
                    -87.637039,
                    41.966751
                ],
                "type":"Point"
            },
            "properties":{
                "id":"58",
                "lake":"michigan",
                "name":"Montrose Beach"
            },
            "type":"Feature"
        },
        {
            "geometry":{
                "coordinates":[
                    -87.667633,
                    42.027859
                ],
                "type":"Point"
            },
            "properties":{
                "id":"",
                "lake":"michigan",
                "name":"Evanston South"
            },
            "type":"Feature"
        },
        {
            "geometry":{
                "coordinates":[
                    -87.670647,
                    42.042629
                ],
                "type":"Point"
            },
            "properties":{
                "id":"25",
                "lake":"michigan",
                "name":"Greenwood"
            },
            "type":"Feature"
        },
        {
            "geometry":{
                "coordinates":[
                    -87.669411,
                    42.036339
                ],
                "type":"Point"
            },
            "properties":{
                "id":"24",
                "lake":"michigan",
                "name":"Lee"
            },
            "type":"Feature"
        },
        {
            "geometry":{
                "coordinates":[
                    -87.57467,
                    41.78151
                ],
                "type":"Point"
            },
            "properties":{
                "id":"",
                "lake":"michigan",
                "name":"Jackson Park/63rd Street Beach"
            },
            "type":"Feature"
        },
        {
            "geometry":{
                "coordinates":[
                    -87.64883,
                    41.97881
                ],
                "type":"Point"
            },
            "properties":{
                "id":"",
                "lake":"michigan",
                "name":"Foster Beach"
            },
            "type":"Feature"
        },
        {
            "geometry":{
                "coordinates":[
                    -87.52778,
                    41.71378
                ],
                "type":"Point"
            },
            "properties":{
                "id":"21",
                "lake":"michigan",
                "name":"Calumet Beach"
            },
            "type":"Feature"
        },
        {
            "geometry":{
                "coordinates":[
                    -87.43324,
                    41.64936
                ],
                "type":"Point"
            },
            "properties":{
                "id":"",
                "lake":"michigan",
                "name":"Jeorse Park"
            },
            "type":"Feature"
        },
        {
            "geometry":{
                "coordinates":[
                    -87.19083,
                    41.62907
                ],
                "type":"Point"
            },
            "properties":{
                "id":"",
                "lake":"michigan",
                "name":"Ogden Dunes"
            },
            "type":"Feature"
        },
        {
            "geometry":{
                "coordinates":[
                    -86.2454,
                    43.052
                ],
                "type":"Point"
            },
            "properties":{
                "id":"23",
                "lake":"michigan",
                "name":"Grand Haven State Park"
            },
            "type":"Feature"
        },
        {
            "geometry":{
                "coordinates":[
                    -86.2545,
                    43.0828
                ],
                "type":"Point"
            },
            "properties":{
                "id":"34",
                "lake":"michigan",
                "name":"North Beach"
            },
            "type":"Feature"
        },
        {
            "geometry":{
                "coordinates":[
                    -85.59602,
                    44.76682
                ],
                "type":"Point"
            },
            "properties":{
                "id":"6",
                "lake":"michigan",
                "name":"Bryant Park Beach"
            },
            "type":"Feature"
        },
        {
            "geometry":{
                "coordinates":[
                    -85.57525,
                    44.76268
                ],
                "type":"Point"
            },
            "properties":{
                "id":"",
                "lake":"michigan",
                "name":"East Bay Park"
            },
            "type":"Feature"
        },
        {
            "geometry":{
                "coordinates":[
                    -86.21071,
                    42.79909
                ],
                "type":"Point"
            },
            "properties":{
                "id":"51",
                "lake":"michigan",
                "name":"Tunnel Park"
            },
            "type":"Feature"
        },
        {
            "geometry":{
                "coordinates":[
                    -83.90676,
                    43.67138
                ],
                "type":"Point"
            },
            "properties":{
                "id":"5",
                "lake":"huron",
                "name":"Bay City State Rec Area"
            },
            "type":"Feature"
        },
        {
            "geometry":{
                "coordinates":[
                    -87.60627,
                    45.10987
                ],
                "type":"Point"
            },
            "properties":{
                "id":"71",
                "lake":"michigan",
                "name":"Memorial Beach"
            },
            "type":"Feature"
        },
        {
            "geometry":{
                "coordinates":[
                    -82.79616,
                    42.57102
                ],
                "type":"Point"
            },
            "properties":{
                "id":"27",
                "lake":"erie",
                "name":"H.C.M.A.- Metropolitan Beach"
            },
            "type":"Feature"
        },
        {
            "geometry":{
                "coordinates":[
                    -83.56688,
                    44.14288
                ],
                "type":"Point"
            },
            "properties":{
                "id":"42",
                "lake":"huron",
                "name":"Singing Bridge Beach"
            },
            "type":"Feature"
        },
        {
            "geometry":{
                "coordinates":[
                    -83.67899,
                    43.99326
                ],
                "type":"Point"
            },
            "properties":{
                "id":"2",
                "lake":"huron",
                "name":"Arenac County Park"
            },
            "type":"Feature"
        },
        {
            "geometry":{
                "coordinates":[
                    -83.59114,
                    44.07753
                ],
                "type":"Point"
            },
            "properties":{
                "id":"",
                "lake":"huron",
                "name":"Cemetery Beach"
            },
            "type":"Feature"
        },
        {
            "geometry":{
                "coordinates":[
                    -82.73298,
                    42.67867
                ],
                "type":"Point"
            },
            "properties":{
                "id":"",
                "lake":"erie",
                "name":"New Baltimore"
            },
            "type":"Feature"
        },
        {
            "geometry":{
                "coordinates":[
                    -77.6085,
                    43.2597
                ],
                "type":"Point"
            },
            "properties":{
                "id":"35",
                "lake":"ontario",
                "name":"Ontario Beach Park"
            },
            "type":"Feature"
        },
        {
            "geometry":{
                "coordinates":[
                    -77.571944,
                    43.241111
                ],
                "type":"Point"
            },
            "properties":{
                "id":"10",
                "lake":"ontario",
                "name":"Durand-Eastman Park"
            },
            "type":"Feature"
        },
        {
            "geometry":{
                "coordinates":[
                    -78.8524,
                    42.7895
                ],
                "type":"Point"
            },
            "properties":{
                "id":"45",
                "lake":"erie",
                "name":"Woodlawn Beach State Park - Hamburg"
            },
            "type":"Feature"
        },
        {
            "geometry":{
                "coordinates":[
                    -79.0648,
                    42.6435
                ],
                "type":"Point"
            },
            "properties":{
                "id":"16",
                "lake":"erie",
                "name":"Evans Town Park"
            },
            "type":"Feature"
        },
        {
            "geometry":{
                "coordinates":[
                    -79.0958,
                    42.6248
                ],
                "type":"Point"
            },
            "properties":{
                "id":"15",
                "lake":"erie",
                "name":"Lake Erie Beach"
            },
            "type":"Feature"
        },
        {
            "geometry":{
                "coordinates":[
                    -82.366257,
                    41.425282
                ],
                "type":"Point"
            },
            "properties":{
                "id":"",
                "lake":"erie",
                "name":"Vermilion West"
            },
            "type":"Feature"
        },
        {
            "geometry":{
                "coordinates":[
                    -81.567778,
                    41.585278
                ],
                "type":"Point"
            },
            "properties":{
                "id":"43",
                "lake":"erie",
                "name":"Villa Angela"
            },
            "type":"Feature"
        },
        {
            "geometry":{
                "coordinates":[
                    -81.740556,
                    41.488889
                ],
                "type":"Point"
            },
            "properties":{
                "id":"12",
                "lake":"erie",
                "name":"Edgewater"
            },
            "type":"Feature"
        },
        {
            "geometry":{
                "coordinates":[
                    -81.934143,
                    41.49094
                ],
                "type":"Point"
            },
            "properties":{
                "id":"14",
                "lake":"erie",
                "name":"Huntington"
            },
            "type":"Feature"
        },
        {
            "geometry":{
                "coordinates":[
                    -82.195,
                    41.464722
                ],
                "type":"Point"
            },
            "properties":{
                "id":"",
                "lake":"erie",
                "name":"Lakeview"
            },
            "type":"Feature"
        },
        {
            "geometry":{
                "coordinates":[
                    -83.378098,
                    41.685799
                ],
                "type":"Point"
            },
            "properties":{
                "id":"30",
                "lake":"erie",
                "name":"Maumee Bay State Park"
            },
            "type":"Feature"
        },
        {
            "geometry":{
                "coordinates":[
                    -81.275294,
                    41.758406
                ],
                "type":"Point"
            },
            "properties":{
                "id":"19",
                "lake":"erie",
                "name":"Fairport Harbor"
            },
            "type":"Feature"
        },
        {
            "geometry":{
                "coordinates":[
                    -81.291539,
                    41.757014
                ],
                "type":"Point"
            },
            "properties":{
                "id":"11",
                "lake":"erie",
                "name":"Mentor Headlands"
            },
            "type":"Feature"
        },
        {
            "geometry":{
                "coordinates":[
                    -82.553795,
                    41.398247
                ],
                "type":"Point"
            },
            "properties":{
                "id":"22",
                "lake":"erie",
                "name":"Lakefront"
            },
            "type":"Feature"
        },
        {
            "geometry":{
                "coordinates":[
                    -82.543808,
                    41.396885
                ],
                "type":"Point"
            },
            "properties":{
                "id":"33",
                "lake":"erie",
                "name":"Nickelplate"
            },
            "type":"Feature"
        },
        {
            "geometry":{
                "coordinates":[
                    -80.15472,
                    42.115
                ],
                "type":"Point"
            },
            "properties":{
                "id":"",
                "lake":"erie",
                "name":"Beach 1 West Extension"
            },
            "type":"Feature"
        },
        {
            "geometry":{
                "coordinates":[
                    -80.15306,
                    42.11722
                ],
                "type":"Point"
            },
            "properties":{
                "id":"",
                "lake":"erie",
                "name":"Beach 1 West"
            },
            "type":"Feature"
        },
        {
            "geometry":{
                "coordinates":[
                    -80.15278,
                    42.11861
                ],
                "type":"Point"
            },
            "properties":{
                "id":"",
                "lake":"erie",
                "name":"Beach 1 East"
            },
            "type":"Feature"
        },
        {
            "geometry":{
                "coordinates":[
                    -80.1498,
                    42.1222
                ],
                "type":"Point"
            },
            "properties":{
                "id":"",
                "lake":"erie",
                "name":"Barracks Beach"
            },
            "type":"Feature"
        },
        {
            "geometry":{
                "coordinates":[
                    -80.145833,
                    42.131944
                ],
                "type":"Point"
            },
            "properties":{
                "id":"",
                "lake":"erie",
                "name":"Beach 2"
            },
            "type":"Feature"
        },
        {
            "geometry":{
                "coordinates":[
                    -80.1384,
                    42.1439
                ],
                "type":"Point"
            },
            "properties":{
                "id":"",
                "lake":"erie",
                "name":"Beach 6"
            },
            "type":"Feature"
        },
        {
            "geometry":{
                "coordinates":[
                    -80.1195,
                    42.1626
                ],
                "type":"Point"
            },
            "properties":{
                "id":"",
                "lake":"erie",
                "name":"Mill Road Beaches"
            },
            "type":"Feature"
        },
        {
            "geometry":{
                "coordinates":[
                    -80.1056,
                    42.1685
                ],
                "type":"Point"
            },
            "properties":{
                "id":"",
                "lake":"erie",
                "name":"Pine Tree Beach (Beach 9)"
            },
            "type":"Feature"
        },
        {
            "geometry":{
                "coordinates":[
                    -80.0896,
                    42.1717
                ],
                "type":"Point"
            },
            "properties":{
                "id":"",
                "lake":"erie",
                "name":"Budny Beach (Beach 10)"
            },
            "type":"Feature"
        },
        {
            "geometry":{
                "coordinates":[
                    -80.0786,
                    42.1617
                ],
                "type":"Point"
            },
            "properties":{
                "id":"",
                "lake":"erie",
                "name":"Beach 11"
            },
            "type":"Feature"
        },
        {
            "geometry":{
                "coordinates":[
                    -87.7418,
                    43.6293
                ],
                "type":"Point"
            },
            "properties":{
                "id":"",
                "lake":"michigan",
                "name":"KK Road Beach"
            },
            "type":"Feature"
        },
        {
            "geometry":{
                "coordinates":[
                    -87.6557,
                    44.08
                ],
                "type":"Point"
            },
            "properties":{
                "id":"38",
                "lake":"michigan",
                "name":"Red Arrow"
            },
            "type":"Feature"
        },
        {
            "geometry":{
                "coordinates":[
                    -90.9208,
                    46.58
                ],
                "type":"Point"
            },
            "properties":{
                "id":"28",
                "lake":"superior",
                "name":"Maslowski Beach (Ashland Co)"
            },
            "type":"Feature"
        },
        {
            "geometry":{
                "coordinates":[
                    -87.3277,
                    44.7593
                ],
                "type":"Point"
            },
            "properties":{
                "id":"9",
                "lake":"michigan",
                "name":"Clay Banks (Door County)"
            },
            "type":"Feature"
        },
        {
            "geometry":{
                "coordinates":[
                    -90.9049,
                    46.67
                ],
                "type":"Point"
            },
            "properties":{
                "id":"50",
                "lake":"superior",
                "name":"Thompson W. End Park (Bayfield Co)"
            },
            "type":"Feature"
        },
        {
            "geometry":{
                "coordinates":[
                    -87.8622,
                    43.396
                ],
                "type":"Point"
            },
            "properties":{
                "id":"52",
                "lake":"michigan",
                "name":"Upper Lake Park North"
            },
            "type":"Feature"
        },
        {
            "geometry":{
                "coordinates":[
                    -87.8622,
                    43.396
                ],
                "type":"Point"
            },
            "properties":{
                "id":"52",
                "lake":"michigan",
                "name":"Upper Lake Park South"
            },
            "type":"Feature"
        },
        {
            "geometry":{
                "coordinates":[
                    -90.881,
                    46.6
                ],
                "type":"Point"
            },
            "properties":{
                "id":"18",
                "lake":"superior",
                "name":"Kreher Park Beach (Ashland Co)"
            },
            "type":"Feature"
        },
        {
            "geometry":{
                "coordinates":[
                    -87.5555,
                    44.1497
                ],
                "type":"Point"
            },
            "properties":{
                "id":"84",
                "lake":"michigan",
                "name":"Neshota"
            },
            "type":"Feature"
        },
        {
            "geometry":{
                "coordinates":[
                    -87.5072,
                    44.2107
                ],
                "type":"Point"
            },
            "properties":{
                "id":"55",
                "lake":"michigan",
                "name":"Point Beach State Forest Lighthouse Picnic Area Beach"
            },
            "type":"Feature"
        },
        {
            "geometry":{
                "coordinates":[
                    -87.5069,
                    44.2177
                ],
                "type":"Point"
            },
            "properties":{
                "id":"54",
                "lake":"michigan",
                "name":"Point Beach State Forest Lakeshore Picnic Area Beach"
            },
            "type":"Feature"
        },
        {
            "geometry":{
                "coordinates":[
                    -87.5073,
                    44.2236
                ],
                "type":"Point"
            },
            "properties":{
                "id":"36",
                "lake":"michigan",
                "name":"Point Beach State Forest concession Stand Beach"
            },
            "type":"Feature"
        },
        {
            "geometry":{
                "coordinates":[
                    -87.7187,
                    43.94
                ],
                "type":"Point"
            },
            "properties":{
                "id":"",
                "lake":"michigan",
                "name":"Fischer"
            },
            "type":"Feature"
        },
        {
            "geometry":{
                "coordinates":[
                    -87.7236,
                    43.9162
                ],
                "type":"Point"
            },
            "properties":{
                "id":"13",
                "lake":"michigan",
                "name":"Hika Park Bay"
            },
            "type":"Feature"
        },
        {
            "geometry":{
                "coordinates":[
                    -79.35798,
                    42.489023
                ],
                "type":"Point"
            },
            "properties":{
                "id":"",
                "lake":"erie",
                "name":"Point Gratiot Beach"
            },
            "type":"Feature"
        },
        {
            "geometry":{
                "coordinates":[
                    -79.32142,
                    42.49678
                ],
                "type":"Point"
            },
            "properties":{
                "id":"",
                "lake":"erie",
                "name":"Wright Park West"
            },
            "type":"Feature"
        }
    ],
    "type":"FeatureCollection"
}